{
  "type": "FeatureCollection",
  "features": [
    {
      "type": "Feature",
      "geometry": {
        "type": "Point",
        "coordinates": [
          -1.1970441599366133,
          50.59450223403301
        ]
      },
      "properties": {
        "name": "The Old Bögenauer",
        "type": "Taverns and Inns",
        "inkscape_coordinates": [
          360.19092,
          457.80783
        ]
      }
    },
    {
      "type": "Feature",
      "geometry": {
        "type": "Point",
        "coordinates": [
          -0.8814176091590342,
          50.333974304725935
        ]
      },
      "properties": {
        "name": "The Festival Rest",
        "type": "Taverns and Inns",
        "inkscape_coordinates": [
          378.2196,
          472.69412
        ]
      }
    },
    {
      "type": "Feature",
      "geometry": {
        "type": "Point",
        "coordinates": [
          -0.9852186465373709,
          50.112075021349106
        ]
      },
      "properties": {
        "name": "The Child and Hammer",
        "type": "Taverns and Inns",
        "inkscape_coordinates": [
          372.28601,
          485.37045
        ]
      }
    },
    {
      "type": "Feature",
      "geometry": {
        "type": "Point",
        "coordinates": [
          -1.496331933916724,
          50.45777369787656
        ]
      },
      "properties": {
        "name": "The Wynn's Scale",
        "type": "Taverns and Inns",
        "inkscape_coordinates": [
          343.08997,
          465.61691
        ]
      }
    },
    {
      "type": "Feature",
      "geometry": {
        "type": "Point",
        "coordinates": [
          -0.7097882140135958,
          50.8053813861908
        ]
      },
      "properties": {
        "name": "The Nobody Knows",
        "type": "Taverns and Inns",
        "inkscape_coordinates": [
          388.03198,
          445.76392
        ]
      }
    },
    {
      "type": "Feature",
      "geometry": {
        "type": "Point",
        "coordinates": [
          -0.6265969977155876,
          50.647001569266784
        ]
      },
      "properties": {
        "name": "The War Mask",
        "type": "Taverns and Inns",
        "inkscape_coordinates": [
          392.78259,
          454.81277
        ]
      }
    },
    {
      "type": "Feature",
      "geometry": {
        "type": "Point",
        "coordinates": [
          -0.43583588932335093,
          51.163583395618076
        ]
      },
      "properties": {
        "name": "The New Unberogen",
        "type": "Taverns and Inns",
        "inkscape_coordinates": [
          403.68866,
          425.30188
        ]
      }
    },
    {
      "type": "Feature",
      "geometry": {
        "type": "Point",
        "coordinates": [
          -0.19410264198016947,
          51.25655807691565
        ]
      },
      "properties": {
        "name": "The Wagon and Mule",
        "type": "Taverns and Inns",
        "inkscape_coordinates": [
          417.50076,
          419.99203
        ]
      }
    },
    {
      "type": "Feature",
      "geometry": {
        "type": "Point",
        "coordinates": [
          -0.06618318605126916,
          51.2903159729183
        ]
      },
      "properties": {
        "name": "The Imperial Cross",
        "type": "Taverns and Inns",
        "inkscape_coordinates": [
          424.80957,
          418.06439
        ]
      }
    },
    {
      "type": "Feature",
      "geometry": {
        "type": "Point",
        "coordinates": [
          -0.11260677536928299,
          50.9334147748663
        ]
      },
      "properties": {
        "name": "The Auld Hill",
        "type": "Taverns and Inns",
        "inkscape_coordinates": [
          422.15213,
          438.4538
        ]
      }
    },
    {
      "type": "Feature",
      "geometry": {
        "type": "Point",
        "coordinates": [
          0.008172189339961555,
          50.86074703908075
        ]
      },
      "properties": {
        "name": "The Anvil's Sister",
        "type": "Taverns and Inns",
        "inkscape_coordinates": [
          429.05145,
          442.6062
        ]
      }
    },
    {
      "type": "Feature",
      "geometry": {
        "type": "Point",
        "coordinates": [
          0.26601001061069507,
          50.66584074616703
        ]
      },
      "properties": {
        "name": "The Old Prince",
        "type": "Taverns and Inns",
        "inkscape_coordinates": [
          443.77948,
          453.7431
        ]
      }
    },
    {
      "type": "Feature",
      "geometry": {
        "type": "Point",
        "coordinates": [
          0.2986725246988646,
          50.4214296486583
        ]
      },
      "properties": {
        "name": "The Summer Rose",
        "type": "Taverns and Inns",
        "inkscape_coordinates": [
          445.64203,
          467.70654
        ]
      }
    },
    {
      "type": "Feature",
      "geometry": {
        "type": "Point",
        "coordinates": [
          -0.5542672038638461,
          50.92370391006288
        ]
      },
      "properties": {
        "name": "The Pelt and Trunk",
        "type": "Taverns and Inns",
        "inkscape_coordinates": [
          396.91895,
          439.00531
        ]
      }
    },
    {
      "type": "Feature",
      "geometry": {
        "type": "Point",
        "coordinates": [
          -1.0027450087020515,
          51.50025890438537
        ]
      },
      "properties": {
        "name": "The Graf Manfred",
        "type": "Taverns and Inns",
        "inkscape_coordinates": [
          371.30475,
          406.06342
        ]
      }
    },
    {
      "type": "Feature",
      "geometry": {
        "type": "Point",
        "coordinates": [
          -0.6367651695429206,
          51.76393297021503
        ]
      },
      "properties": {
        "name": "The Drake",
        "type": "Taverns and Inns",
        "inkscape_coordinates": [
          392.2178,
          391.00244
        ]
      }
    },
    {
      "type": "Feature",
      "geometry": {
        "type": "Point",
        "coordinates": [
          -0.36215199467347414,
          51.663615112896515
        ]
      },
      "properties": {
        "name": "The Sheep Market",
        "type": "Taverns and Inns",
        "inkscape_coordinates": [
          407.90561,
          396.73563
        ]
      }
    },
    {
      "type": "Feature",
      "geometry": {
        "type": "Point",
        "coordinates": [
          -0.0013861461426545318,
          51.85856117503513
        ]
      },
      "properties": {
        "name": "Seven Spokes",
        "type": "Taverns and Inns",
        "inkscape_coordinates": [
          428.51978,
          385.60104
        ]
      }
    },
    {
      "type": "Feature",
      "geometry": {
        "type": "Point",
        "coordinates": [
          0.04006058823991321,
          51.70466710890857
        ]
      },
      "properties": {
        "name": "The Auld Granger",
        "type": "Taverns and Inns",
        "inkscape_coordinates": [
          430.8855,
          394.39331
        ]
      }
    },
    {
      "type": "Feature",
      "geometry": {
        "type": "Point",
        "coordinates": [
          0.1459226533290483,
          51.70366157925014
        ]
      },
      "properties": {
        "name": "The Mortician's Basket",
        "type": "Taverns and Inns",
        "inkscape_coordinates": [
          436.93362,
          394.45154
        ]
      }
    },
    {
      "type": "Feature",
      "geometry": {
        "type": "Point",
        "coordinates": [
          -0.23075869920138015,
          51.768086434874355
        ]
      },
      "properties": {
        "name": "The Countless Arms",
        "type": "Taverns and Inns",
        "inkscape_coordinates": [
          415.41391,
          390.76816
        ]
      }
    },
    {
      "type": "Feature",
      "geometry": {
        "type": "Point",
        "coordinates": [
          0.1843751732522012,
          51.17926875234183
        ]
      },
      "properties": {
        "name": "The Skull and Crown",
        "type": "Taverns and Inns",
        "inkscape_coordinates": [
          439.12292,
          424.41037
        ]
      }
    },
    {
      "type": "Feature",
      "geometry": {
        "type": "Point",
        "coordinates": [
          -0.01065518403398702,
          52.055834021995395
        ]
      },
      "properties": {
        "name": "The Matthais",
        "type": "Taverns and Inns",
        "inkscape_coordinates": [
          427.99307,
          374.33078
        ]
      }
    },
    {
      "type": "Feature",
      "geometry": {
        "type": "Point",
        "coordinates": [
          0.1868383196813319,
          52.176119629276165
        ]
      },
      "properties": {
        "name": "The Four Horns",
        "type": "Taverns and Inns",
        "inkscape_coordinates": [
          439.27805,
          367.46033
        ]
      }
    },
    {
      "type": "Feature",
      "geometry": {
        "type": "Point",
        "coordinates": [
          0.12686743563026504,
          52.41206962843947
        ]
      },
      "properties": {
        "name": "The Coach and Horses",
        "type": "Taverns and Inns",
        "inkscape_coordinates": [
          435.85519,
          353.98007
        ]
      }
    },
    {
      "type": "Feature",
      "geometry": {
        "type": "Point",
        "coordinates": [
          -9.15451476464213e-05,
          52.412630623179865
        ]
      },
      "properties": {
        "name": "The Five Brothers Lodge",
        "type": "Taverns and Inns",
        "inkscape_coordinates": [
          428.60175,
          353.94708
        ]
      }
    },
    {
      "type": "Feature",
      "geometry": {
        "type": "Point",
        "coordinates": [
          -0.854485212465014,
          52.10986257934162
        ]
      },
      "properties": {
        "name": "The Swamp Palace",
        "type": "Taverns and Inns",
        "inkscape_coordinates": [
          379.78397,
          371.23788
        ]
      }
    },
    {
      "type": "Feature",
      "geometry": {
        "type": "Point",
        "coordinates": [
          -0.8377826583096164,
          51.89229504310355
        ]
      },
      "properties": {
        "name": "The Long Tooth",
        "type": "Taverns and Inns",
        "inkscape_coordinates": [
          380.73508,
          383.66763
        ]
      }
    },
    {
      "type": "Feature",
      "geometry": {
        "type": "Point",
        "coordinates": [
          0.4510332146701428,
          52.78092895063326
        ]
      },
      "properties": {
        "name": "The Yellow Eye Tavern",
        "type": "Taverns and Inns",
        "inkscape_coordinates": [
          454.38083,
          332.90955
        ]
      }
    },
    {
      "type": "Feature",
      "geometry": {
        "type": "Point",
        "coordinates": [
          0.33364788644367227,
          51.771558703173355
        ]
      },
      "properties": {
        "name": "The Horned Father",
        "type": "Taverns and Inns",
        "inkscape_coordinates": [
          447.65976,
          390.57397
        ]
      }
    },
    {
      "type": "Feature",
      "geometry": {
        "type": "Point",
        "coordinates": [
          0.7866532254110448,
          51.88715574807131
        ]
      },
      "properties": {
        "name": "The Bell Inn",
        "type": "Taverns and Inns",
        "inkscape_coordinates": [
          473.54263,
          383.97327
        ]
      }
    },
    {
      "type": "Feature",
      "geometry": {
        "type": "Point",
        "coordinates": [
          0.304574427017986,
          51.93980271004811
        ]
      },
      "properties": {
        "name": "The Delb Down",
        "type": "Taverns and Inns",
        "inkscape_coordinates": [
          446.00116,
          380.96198
        ]
      }
    },
    {
      "type": "Feature",
      "geometry": {
        "type": "Point",
        "coordinates": [
          0.37546235365862035,
          52.5041819046363
        ]
      },
      "properties": {
        "name": "The Third Brother",
        "type": "Taverns and Inns",
        "inkscape_coordinates": [
          450.0593,
          348.71954
        ]
      }
    },
    {
      "type": "Feature",
      "geometry": {
        "type": "Point",
        "coordinates": [
          0.33937944437773115,
          50.55522513018929
        ]
      },
      "properties": {
        "name": "The Four-Eyed Skull",
        "type": "Taverns and Inns",
        "inkscape_coordinates": [
          447.96964,
          460.06311
        ]
      }
    },
    {
      "type": "Feature",
      "geometry": {
        "type": "Point",
        "coordinates": [
          0.33974370009362787,
          50.28874716850559
        ]
      },
      "properties": {
        "name": "The Brass Monkey",
        "type": "Taverns and Inns",
        "inkscape_coordinates": [
          447.9866,
          475.28699
        ]
      }
    },
    {
      "type": "Feature",
      "geometry": {
        "type": "Point",
        "coordinates": [
          0.41688718504135736,
          50.20235820648941
        ]
      },
      "properties": {
        "name": "The Hog and Doe",
        "type": "Taverns and Inns",
        "inkscape_coordinates": [
          452.39273,
          480.22296
        ]
      }
    },
    {
      "type": "Feature",
      "geometry": {
        "type": "Point",
        "coordinates": [
          0.6292383212440678,
          49.60851633035601
        ]
      },
      "properties": {
        "name": "The Burning Heretic",
        "type": "Taverns and Inns",
        "inkscape_coordinates": [
          464.51624,
          514.1507
        ]
      }
    },
    {
      "type": "Feature",
      "geometry": {
        "type": "Point",
        "coordinates": [
          0.4412043428405088,
          49.70942339323433
        ]
      },
      "properties": {
        "name": "The Wheelhouse",
        "type": "Taverns and Inns",
        "inkscape_coordinates": [
          453.7749,
          508.38449
        ]
      }
    },
    {
      "type": "Feature",
      "geometry": {
        "type": "Point",
        "coordinates": [
          0.5734583001331055,
          49.45878435024058
        ]
      },
      "properties": {
        "name": "The Dangling Thread",
        "type": "Taverns and Inns",
        "inkscape_coordinates": [
          461.32724,
          522.70447
        ]
      }
    },
    {
      "type": "Feature",
      "geometry": {
        "type": "Point",
        "coordinates": [
          1.002014590144067,
          49.80955567377041
        ]
      },
      "properties": {
        "name": "The Mantle and Stoker",
        "type": "Taverns and Inns",
        "inkscape_coordinates": [
          485.81668,
          502.66809
        ]
      }
    },
    {
      "type": "Feature",
      "geometry": {
        "type": "Point",
        "coordinates": [
          1.4100235514435715,
          50.39038520266235
        ]
      },
      "properties": {
        "name": "The Third Comet",
        "type": "Taverns and Inns",
        "inkscape_coordinates": [
          509.13553,
          469.48834
        ]
      }
    },
    {
      "type": "Feature",
      "geometry": {
        "type": "Point",
        "coordinates": [
          1.2169166030556253,
          50.49198598944907
        ]
      },
      "properties": {
        "name": "The Bear and Cock Pit",
        "type": "Taverns and Inns",
        "inkscape_coordinates": [
          498.10437,
          463.68246
        ]
      }
    },
    {
      "type": "Feature",
      "geometry": {
        "type": "Point",
        "coordinates": [
          0.6425196946364009,
          50.42272313592419
        ]
      },
      "properties": {
        "name": "The Tupping Ram",
        "type": "Taverns and Inns",
        "inkscape_coordinates": [
          465.2868,
          467.63519
        ]
      }
    },
    {
      "type": "Feature",
      "geometry": {
        "type": "Point",
        "coordinates": [
          1.3224967287393339,
          49.7898154878677
        ]
      },
      "properties": {
        "name": "The Boar and Child",
        "type": "Taverns and Inns",
        "inkscape_coordinates": [
          504.12625,
          503.79822
        ]
      }
    },
    {
      "type": "Feature",
      "geometry": {
        "type": "Point",
        "coordinates": [
          -2.144525711704162,
          50.42787238228439
        ]
      },
      "properties": {
        "name": "The Three Doves",
        "type": "Taverns and Inns",
        "inkscape_coordinates": [
          306.05679,
          467.32037
        ]
      }
    },
    {
      "type": "Feature",
      "geometry": {
        "type": "Point",
        "coordinates": [
          -2.205924035252184,
          51.830757569649805
        ]
      },
      "properties": {
        "name": "Sacred Ground of Blessed Shallya",
        "type": "Monasteries and Temples",
        "inkscape_coordinates": [
          302.56924,
          387.17313
        ]
      }
    },
    {
      "type": "Feature",
      "geometry": {
        "type": "Point",
        "coordinates": [
          -0.06664830733299976,
          52.440686074305546
        ]
      },
      "properties": {
        "name": "The Place of Shining Rock",
        "type": "Monasteries and Temples",
        "inkscape_coordinates": [
          424.79962,
          352.34378
        ]
      }
    },
    {
      "type": "Feature",
      "geometry": {
        "type": "Point",
        "coordinates": [
          7.065283256081909,
          46.769219810288064
        ]
      },
      "properties": {
        "name": "Shrine of Gadd",
        "type": "Monasteries and Temples",
        "inkscape_coordinates": [
          832.18073,
          676.40729
        ]
      }
    },
    {
      "type": "Feature",
      "geometry": {
        "type": "Point",
        "coordinates": [
          6.88251689268169,
          46.132399148206346
        ]
      },
      "properties": {
        "name": "The Last Skaranorak Temple",
        "type": "Monasteries and Temples",
        "inkscape_coordinates": [
          821.72968,
          712.78748
        ]
      }
    },
    {
      "type": "Feature",
      "geometry": {
        "type": "Point",
        "coordinates": [
          -3.5630423741677104,
          51.4210930237093
        ]
      },
      "properties": {
        "name": "Temple of the Three Peaks",
        "type": "Monasteries and Temples",
        "inkscape_coordinates": [
          225.02814,
          410.5672
        ]
      }
    },
    {
      "type": "Feature",
      "geometry": {
        "type": "Point",
        "coordinates": [
          5.44728912017201,
          44.535587970201945
        ]
      },
      "properties": {
        "name": "Abbey of the Heiligerberg",
        "type": "Monasteries and Temples",
        "inkscape_coordinates": [
          739.70886,
          804.00262
        ]
      }
    },
    {
      "type": "Feature",
      "geometry": {
        "type": "Point",
        "coordinates": [
          0.1922490828305703,
          53.42459662208792
        ]
      },
      "properties": {
        "name": "Drakwald College of the Holy Wolf",
        "type": "Monasteries and Temples",
        "inkscape_coordinates": [
          439.60522,
          296.13492
        ]
      }
    },
    {
      "type": "Feature",
      "geometry": {
        "type": "Point",
        "coordinates": [
          -2.07967058153948,
          50.352622039931084
        ]
      },
      "properties": {
        "name": "St. Ulrika's Abbey",
        "type": "Monasteries and Temples",
        "inkscape_coordinates": [
          309.76102,
          471.6199
        ]
      }
    },
    {
      "type": "Feature",
      "geometry": {
        "type": "Point",
        "coordinates": [
          0.18512473448625055,
          51.63087316700469
        ]
      },
      "properties": {
        "name": "Comet and Sky Abbey",
        "type": "Monasteries and Temples",
        "inkscape_coordinates": [
          439.17227,
          398.61023
        ]
      }
    },
    {
      "type": "Feature",
      "geometry": {
        "type": "Point",
        "coordinates": [
          0.06934668498795205,
          51.63548952581111
        ]
      },
      "properties": {
        "name": "Granger Abbey",
        "type": "Monasteries and Temples",
        "inkscape_coordinates": [
          432.55768,
          398.34564
        ]
      }
    },
    {
      "type": "Feature",
      "geometry": {
        "type": "Point",
        "coordinates": [
          -0.054536748138360736,
          51.644156997774985
        ]
      },
      "properties": {
        "name": "Sigmar's Rest",
        "type": "Monasteries and Temples",
        "inkscape_coordinates": [
          425.48007,
          397.84955
        ]
      }
    },
    {
      "type": "Feature",
      "geometry": {
        "type": "Point",
        "coordinates": [
          -0.19288297207485794,
          51.61693022343557
        ]
      },
      "properties": {
        "name": "Blessed Brothers of Blood Monastery",
        "type": "Monasteries and Temples",
        "inkscape_coordinates": [
          417.57565,
          399.40399
        ]
      }
    },
    {
      "type": "Feature",
      "geometry": {
        "type": "Point",
        "coordinates": [
          0.13183866750609496,
          51.74375307199951
        ]
      },
      "properties": {
        "name": "Monastery of the Forged Hammer",
        "type": "Monasteries and Temples",
        "inkscape_coordinates": [
          436.12955,
          392.16101
        ]
      }
    },
    {
      "type": "Feature",
      "geometry": {
        "type": "Point",
        "coordinates": [
          -0.16514809028501087,
          51.82070883444651
        ]
      },
      "properties": {
        "name": "Silverfire Abbey",
        "type": "Monasteries and Temples",
        "inkscape_coordinates": [
          419.16315,
          387.76233
        ]
      }
    },
    {
      "type": "Feature",
      "geometry": {
        "type": "Point",
        "coordinates": [
          0.05714229520993186,
          51.825369024579565
        ]
      },
      "properties": {
        "name": "The Great Hospice",
        "type": "Monasteries and Temples",
        "inkscape_coordinates": [
          431.86316,
          387.49774
        ]
      }
    },
    {
      "type": "Feature",
      "geometry": {
        "type": "Point",
        "coordinates": [
          0.018886313029566004,
          52.02045554600051
        ]
      },
      "properties": {
        "name": "Berith's Garden",
        "type": "Monasteries and Temples",
        "inkscape_coordinates": [
          429.68033,
          376.35217
        ]
      }
    },
    {
      "type": "Feature",
      "geometry": {
        "type": "Point",
        "coordinates": [
          -0.8158560990358819,
          51.98966517387482
        ]
      },
      "properties": {
        "name": "Wolf's Watch",
        "type": "Monasteries and Temples",
        "inkscape_coordinates": [
          381.9892,
          378.10504
        ]
      }
    },
    {
      "type": "Feature",
      "geometry": {
        "type": "Point",
        "coordinates": [
          -0.853935641297511,
          51.487169490947025
        ]
      },
      "properties": {
        "name": "Monastery of the Blessed Fang",
        "type": "Monasteries and Temples",
        "inkscape_coordinates": [
          379.80637,
          406.81232
        ]
      }
    },
    {
      "type": "Feature",
      "geometry": {
        "type": "Point",
        "coordinates": [
          -0.6976238201556697,
          51.43450917406976
        ]
      },
      "properties": {
        "name": "Monastery of the Eternal Watch",
        "type": "Monasteries and Temples",
        "inkscape_coordinates": [
          388.73605,
          409.82196
        ]
      }
    },
    {
      "type": "Feature",
      "geometry": {
        "type": "Point",
        "coordinates": [
          -0.4770661259058979,
          51.42411749438611
        ]
      },
      "properties": {
        "name": "Monastery of the Holy Word",
        "type": "Monasteries and Temples",
        "inkscape_coordinates": [
          401.33685,
          410.41727
        ]
      }
    },
    {
      "type": "Feature",
      "geometry": {
        "type": "Point",
        "coordinates": [
          -0.501879902029005,
          51.113820384853426
        ]
      },
      "properties": {
        "name": "Order of the Northern Cross",
        "type": "Monasteries and Temples",
        "inkscape_coordinates": [
          399.9147,
          428.14435
        ]
      }
    },
    {
      "type": "Feature",
      "geometry": {
        "type": "Point",
        "coordinates": [
          0.12497660694726864,
          51.40914408043929
        ]
      },
      "properties": {
        "name": "Monastery of the Broken Branch",
        "type": "Monasteries and Temples",
        "inkscape_coordinates": [
          435.73267,
          411.27716
        ]
      }
    },
    {
      "type": "Feature",
      "geometry": {
        "type": "Point",
        "coordinates": [
          0.1765192938441844,
          51.323472261735816
        ]
      },
      "properties": {
        "name": "Chapterhouse of the Shattered Lance",
        "type": "Monasteries and Temples",
        "inkscape_coordinates": [
          438.67618,
          416.17197
        ]
      }
    },
    {
      "type": "Feature",
      "geometry": {
        "type": "Point",
        "coordinates": [
          -0.13724221482289067,
          51.34774579136389
        ]
      },
      "properties": {
        "name": "Altern Abbey",
        "type": "Monasteries and Temples",
        "inkscape_coordinates": [
          420.75064,
          414.7829
        ]
      }
    },
    {
      "type": "Feature",
      "geometry": {
        "type": "Point",
        "coordinates": [
          -0.25877702166339667,
          51.226159686725566
        ]
      },
      "properties": {
        "name": "Hammer's Lodge",
        "type": "Monasteries and Temples",
        "inkscape_coordinates": [
          413.80533,
          421.72821
        ]
      }
    },
    {
      "type": "Feature",
      "geometry": {
        "type": "Point",
        "coordinates": [
          1.8232182407256028,
          52.21462325191114
        ]
      },
      "properties": {
        "name": "Monastery of Leopold",
        "type": "Monasteries and Temples",
        "inkscape_coordinates": [
          532.76862,
          365.27274
        ]
      }
    },
    {
      "type": "Feature",
      "geometry": {
        "type": "Point",
        "coordinates": [
          0.47907927225266533,
          50.97659811175673
        ]
      },
      "properties": {
        "name": "Temple of Invidious Silence",
        "type": "Monasteries and Temples",
        "inkscape_coordinates": [
          455.95709,
          435.99112
        ]
      }
    },
    {
      "type": "Feature",
      "geometry": {
        "type": "Point",
        "coordinates": [
          0.08723405966137587,
          50.36803199657197
        ]
      },
      "properties": {
        "name": "Karlsbaum Monastery",
        "type": "Monasteries and Temples",
        "inkscape_coordinates": [
          433.56131,
          470.75558
        ]
      }
    },
    {
      "type": "Feature",
      "geometry": {
        "type": "Point",
        "coordinates": [
          2.348871004298238,
          51.692977822077566
        ]
      },
      "properties": {
        "name": "Schrammel Monastery",
        "type": "Monasteries and Temples",
        "inkscape_coordinates": [
          562.79279,
          395.07822
        ]
      }
    },
    {
      "type": "Feature",
      "geometry": {
        "type": "Point",
        "coordinates": [
          -2.2723168630074424,
          53.35938942403628
        ]
      },
      "properties": {
        "name": "Ongediertefort",
        "type": "Forts and Castles",
        "inkscape_coordinates": [
          298.79816,
          299.84195
        ]
      }
    },
    {
      "type": "Feature",
      "geometry": {
        "type": "Point",
        "coordinates": [
          -2.5402136643776476,
          53.065166181106115
        ]
      },
      "properties": {
        "name": "Fort Oosterbank",
        "type": "Forts and Castles",
        "inkscape_coordinates": [
          283.48837,
          316.64893
        ]
      }
    },
    {
      "type": "Feature",
      "geometry": {
        "type": "Point",
        "coordinates": [
          -2.6554576196949284,
          53.3615384199324
        ]
      },
      "properties": {
        "name": "Manannsfort",
        "type": "Forts and Castles",
        "inkscape_coordinates": [
          276.90851,
          299.71634
        ]
      }
    },
    {
      "type": "Feature",
      "geometry": {
        "type": "Point",
        "coordinates": [
          -3.0156754331791618,
          53.09735888697651
        ]
      },
      "properties": {
        "name": "Westerfort",
        "type": "Forts and Castles",
        "inkscape_coordinates": [
          256.32465,
          314.80624
        ]
      }
    },
    {
      "type": "Feature",
      "geometry": {
        "type": "Point",
        "coordinates": [
          -0.9416824620845485,
          50.94742666823567
        ]
      },
      "properties": {
        "name": "Fest Uberbgenö",
        "type": "Forts and Castles",
        "inkscape_coordinates": [
          374.7854,
          437.64716
        ]
      }
    },
    {
      "type": "Feature",
      "geometry": {
        "type": "Point",
        "coordinates": [
          1.2092566237186047,
          49.738489381820415
        ]
      },
      "properties": {
        "name": "Schloss von Wittgenstein",
        "type": "Forts and Castles",
        "inkscape_coordinates": [
          497.65585,
          506.72964
        ]
      }
    },
    {
      "type": "Feature",
      "geometry": {
        "type": "Point",
        "coordinates": [
          1.2351913562411498,
          50.776600983310736
        ]
      },
      "properties": {
        "name": "Schloss Gramlet",
        "type": "Forts and Castles",
        "inkscape_coordinates": [
          499.15256,
          447.42255
        ]
      }
    },
    {
      "type": "Feature",
      "geometry": {
        "type": "Point",
        "coordinates": [
          0.9151217010010848,
          50.54471723937534
        ]
      },
      "properties": {
        "name": "Schloss Duhntief",
        "type": "Forts and Castles",
        "inkscape_coordinates": [
          480.86292,
          460.66769
        ]
      }
    },
    {
      "type": "Feature",
      "geometry": {
        "type": "Point",
        "coordinates": [
          1.0384052332729103,
          50.3709111396613
        ]
      },
      "properties": {
        "name": "Lengernschloss",
        "type": "Forts and Castles",
        "inkscape_coordinates": [
          487.90387,
          470.59814
        ]
      }
    },
    {
      "type": "Feature",
      "geometry": {
        "type": "Point",
        "coordinates": [
          0.6884080941842639,
          50.44168271078881
        ]
      },
      "properties": {
        "name": "Schloss Anbolt",
        "type": "Forts and Castles",
        "inkscape_coordinates": [
          467.90878,
          466.55237
        ]
      }
    },
    {
      "type": "Feature",
      "geometry": {
        "type": "Point",
        "coordinates": [
          0.3814732031160375,
          50.18293455967028
        ]
      },
      "properties": {
        "name": "Schloss Blassel",
        "type": "Forts and Castles",
        "inkscape_coordinates": [
          450.36917,
          481.33237
        ]
      }
    },
    {
      "type": "Feature",
      "geometry": {
        "type": "Point",
        "coordinates": [
          0.9625785665724989,
          49.497972928860165
        ]
      },
      "properties": {
        "name": "Schloss Visen",
        "type": "Forts and Castles",
        "inkscape_coordinates": [
          483.55911,
          520.46851
        ]
      }
    },
    {
      "type": "Feature",
      "geometry": {
        "type": "Point",
        "coordinates": [
          0.9481239753152098,
          49.429660496114394
        ]
      },
      "properties": {
        "name": "Achernschloss",
        "type": "Forts and Castles",
        "inkscape_coordinates": [
          482.7323,
          524.37109
        ]
      }
    },
    {
      "type": "Feature",
      "geometry": {
        "type": "Point",
        "coordinates": [
          1.0563979944104522,
          49.33936518818435
        ]
      },
      "properties": {
        "name": "Feste Flusswacht",
        "type": "Forts and Castles",
        "inkscape_coordinates": [
          488.91693,
          529.53046
        ]
      }
    },
    {
      "type": "Feature",
      "geometry": {
        "type": "Point",
        "coordinates": [
          1.1969843164965726,
          49.66472895305527
        ]
      },
      "properties": {
        "name": "Hammerschlag Schloss",
        "type": "Forts and Castles",
        "inkscape_coordinates": [
          496.95364,
          510.94348
        ]
      }
    },
    {
      "type": "Feature",
      "geometry": {
        "type": "Point",
        "coordinates": [
          1.3733484385087378,
          50.43817112770005
        ]
      },
      "properties": {
        "name": "Feste Diesdorf",
        "type": "Forts and Castles",
        "inkscape_coordinates": [
          507.04089,
          466.75806
        ]
      }
    },
    {
      "type": "Feature",
      "geometry": {
        "type": "Point",
        "coordinates": [
          1.2731740639744258,
          50.54641358383244
        ]
      },
      "properties": {
        "name": "Turm Taalford",
        "type": "Forts and Castles",
        "inkscape_coordinates": [
          501.31927,
          460.57343
        ]
      }
    },
    {
      "type": "Feature",
      "geometry": {
        "type": "Point",
        "coordinates": [
          1.4742022672913082,
          49.93279830473982
        ]
      },
      "properties": {
        "name": "Schloss Feldenstedt",
        "type": "Forts and Castles",
        "inkscape_coordinates": [
          512.79559,
          495.63074
        ]
      }
    },
    {
      "type": "Feature",
      "geometry": {
        "type": "Point",
        "coordinates": [
          0.48133431686401895,
          50.25512083687977
        ]
      },
      "properties": {
        "name": "Blinschloss",
        "type": "Forts and Castles",
        "inkscape_coordinates": [
          456.0755,
          477.20911
        ]
      }
    },
    {
      "type": "Feature",
      "geometry": {
        "type": "Point",
        "coordinates": [
          -1.18578825398105,
          50.79415862914994
        ]
      },
      "properties": {
        "name": "Schloss Grauenburg",
        "type": "Forts and Castles",
        "inkscape_coordinates": [
          360.83688,
          446.40155
        ]
      }
    },
    {
      "type": "Feature",
      "geometry": {
        "type": "Point",
        "coordinates": [
          -1.606224917318129,
          50.09998872338056
        ]
      },
      "properties": {
        "name": "Schloss von Drakenburg",
        "type": "Forts and Castles",
        "inkscape_coordinates": [
          336.80637,
          486.05634
        ]
      }
    },
    {
      "type": "Feature",
      "geometry": {
        "type": "Point",
        "coordinates": [
          -1.4768681117934568,
          50.06807619255022
        ]
      },
      "properties": {
        "name": "Hesselschloss",
        "type": "Forts and Castles",
        "inkscape_coordinates": [
          344.19635,
          487.88046
        ]
      }
    },
    {
      "type": "Feature",
      "geometry": {
        "type": "Point",
        "coordinates": [
          -1.2607941984699353,
          50.281784006338995
        ]
      },
      "properties": {
        "name": "Hohenwand",
        "type": "Forts and Castles",
        "inkscape_coordinates": [
          356.54422,
          475.67294
        ]
      }
    },
    {
      "type": "Feature",
      "geometry": {
        "type": "Point",
        "coordinates": [
          -1.0871789832255754,
          50.05257078269408
        ]
      },
      "properties": {
        "name": "Schloss Sturmdunkel",
        "type": "Forts and Castles",
        "inkscape_coordinates": [
          366.45993,
          488.76917
        ]
      }
    },
    {
      "type": "Feature",
      "geometry": {
        "type": "Point",
        "coordinates": [
          -0.9700932737364205,
          49.9870903894122
        ]
      },
      "properties": {
        "name": "Ostervorbergschloss",
        "type": "Forts and Castles",
        "inkscape_coordinates": [
          373.14835,
          492.51093
        ]
      }
    },
    {
      "type": "Feature",
      "geometry": {
        "type": "Point",
        "coordinates": [
          -0.9964162694439036,
          50.48403667252379
        ]
      },
      "properties": {
        "name": "Schevingerschloss",
        "type": "Forts and Castles",
        "inkscape_coordinates": [
          371.65164,
          464.12021
        ]
      }
    },
    {
      "type": "Feature",
      "geometry": {
        "type": "Point",
        "coordinates": [
          -0.21566789775751705,
          51.505053759235736
        ]
      },
      "properties": {
        "name": "Festung Reiksfang",
        "type": "Forts and Castles",
        "inkscape_coordinates": [
          416.27228,
          405.79532
        ]
      }
    },
    {
      "type": "Feature",
      "geometry": {
        "type": "Point",
        "coordinates": [
          -0.28427075846447547,
          51.523984661933916
        ]
      },
      "properties": {
        "name": "Walfenburg",
        "type": "Forts and Castles",
        "inkscape_coordinates": [
          412.35312,
          404.71329
        ]
      }
    },
    {
      "type": "Feature",
      "geometry": {
        "type": "Point",
        "coordinates": [
          -0.1146654686668338,
          51.554688797548174
        ]
      },
      "properties": {
        "name": "Reikwacht",
        "type": "Forts and Castles",
        "inkscape_coordinates": [
          422.04349,
          402.96042
        ]
      }
    },
    {
      "type": "Feature",
      "geometry": {
        "type": "Point",
        "coordinates": [
          -0.510726362168537,
          51.96624034180972
        ]
      },
      "properties": {
        "name": "Nordenfast",
        "type": "Forts and Castles",
        "inkscape_coordinates": [
          399.4216,
          379.44556
        ]
      }
    },
    {
      "type": "Feature",
      "geometry": {
        "type": "Point",
        "coordinates": [
          -0.7016736348909776,
          51.63276519433374
        ]
      },
      "properties": {
        "name": "Fennturm",
        "type": "Forts and Castles",
        "inkscape_coordinates": [
          388.50754,
          398.49557
        ]
      }
    },
    {
      "type": "Feature",
      "geometry": {
        "type": "Point",
        "coordinates": [
          -1.058784888924369,
          51.39594596066721
        ]
      },
      "properties": {
        "name": "Klauenschloss",
        "type": "Forts and Castles",
        "inkscape_coordinates": [
          368.10156,
          412.0224
        ]
      }
    },
    {
      "type": "Feature",
      "geometry": {
        "type": "Point",
        "coordinates": [
          -0.7333556819692264,
          51.01448889926779
        ]
      },
      "properties": {
        "name": "Holswigburg",
        "type": "Forts and Castles",
        "inkscape_coordinates": [
          386.68854,
          433.81744
        ]
      }
    },
    {
      "type": "Feature",
      "geometry": {
        "type": "Point",
        "coordinates": [
          -0.22970915535779834,
          50.9450854032265
        ]
      },
      "properties": {
        "name": "Schloss Rechtlich",
        "type": "Forts and Castles",
        "inkscape_coordinates": [
          415.46198,
          437.78619
        ]
      }
    },
    {
      "type": "Feature",
      "geometry": {
        "type": "Point",
        "coordinates": [
          -0.3600204539342853,
          51.19168303642076
        ]
      },
      "properties": {
        "name": "Schloss Bretzen",
        "type": "Forts and Castles",
        "inkscape_coordinates": [
          408.02057,
          423.69711
        ]
      }
    },
    {
      "type": "Feature",
      "geometry": {
        "type": "Point",
        "coordinates": [
          0.10248588354855492,
          51.277999833179635
        ]
      },
      "properties": {
        "name": "Neuautlerburg",
        "type": "Forts and Castles",
        "inkscape_coordinates": [
          434.44583,
          418.76926
        ]
      }
    },
    {
      "type": "Feature",
      "geometry": {
        "type": "Point",
        "coordinates": [
          0.07004707089330342,
          51.362516067521454
        ]
      },
      "properties": {
        "name": "Bernsteinschloss",
        "type": "Forts and Castles",
        "inkscape_coordinates": [
          432.59375,
          413.94061
        ]
      }
    },
    {
      "type": "Feature",
      "geometry": {
        "type": "Point",
        "coordinates": [
          -2.2800116510462756,
          50.198963735727986
        ]
      },
      "properties": {
        "name": "Helspire",
        "type": "Forts and Castles",
        "inkscape_coordinates": [
          298.31287,
          480.39691
        ]
      }
    },
    {
      "type": "Feature",
      "geometry": {
        "type": "Point",
        "coordinates": [
          -3.5677361220279855,
          50.87953513216374
        ]
      },
      "properties": {
        "name": "Blackstone Tower",
        "type": "Forts and Castles",
        "inkscape_coordinates": [
          224.75215,
          441.50635
        ]
      }
    },
    {
      "type": "Feature",
      "geometry": {
        "type": "Point",
        "coordinates": [
          -1.1151950408540001,
          49.56051120827728
        ]
      },
      "properties": {
        "name": "Schloss Drachenfels",
        "type": "Forts and Castles",
        "inkscape_coordinates": [
          364.8522,
          516.88031
        ]
      }
    },
    {
      "type": "Feature",
      "geometry": {
        "type": "Point",
        "coordinates": [
          0.6474341715713132,
          48.12418737184887
        ]
      },
      "properties": {
        "name": "Blood Keep",
        "type": "Forts and Castles",
        "inkscape_coordinates": [
          465.53436,
          598.9505
        ]
      }
    },
    {
      "type": "Feature",
      "geometry": {
        "type": "Point",
        "coordinates": [
          2.695785260703798,
          47.09515689388938
        ]
      },
      "properties": {
        "name": "Turm Lebendorf",
        "type": "Forts and Castles",
        "inkscape_coordinates": [
          582.54633,
          657.75415
        ]
      }
    },
    {
      "type": "Feature",
      "geometry": {
        "type": "Point",
        "coordinates": [
          6.324859475548885,
          49.17969125956006
        ]
      },
      "properties": {
        "name": "Turm Königstein",
        "type": "Forts and Castles",
        "inkscape_coordinates": [
          789.91351,
          538.69165
        ]
      }
    },
    {
      "type": "Feature",
      "geometry": {
        "type": "Point",
        "coordinates": [
          6.8851063715758505,
          49.62552172051841
        ]
      },
      "properties": {
        "name": "Schloss Tempelhof",
        "type": "Forts and Castles",
        "inkscape_coordinates": [
          821.9281,
          513.22552
        ]
      }
    },
    {
      "type": "Feature",
      "geometry": {
        "type": "Point",
        "coordinates": [
          7.136271558552942,
          49.903429464392346
        ]
      },
      "properties": {
        "name": "Vanhaldenschlosse",
        "type": "Forts and Castles",
        "inkscape_coordinates": [
          836.28174,
          497.35052
        ]
      }
    },
    {
      "type": "Feature",
      "geometry": {
        "type": "Point",
        "coordinates": [
          7.355542273810415,
          48.11579435364868
        ]
      },
      "properties": {
        "name": "Konradswacht",
        "type": "Forts and Castles",
        "inkscape_coordinates": [
          848.78333,
          599.47968
        ]
      }
    },
    {
      "type": "Feature",
      "geometry": {
        "type": "Point",
        "coordinates": [
          6.900669669198002,
          47.60166594578956
        ]
      },
      "properties": {
        "name": "Fest Bracher",
        "type": "Forts and Castles",
        "inkscape_coordinates": [
          822.78802,
          628.84845
        ]
      }
    },
    {
      "type": "Feature",
      "geometry": {
        "type": "Point",
        "coordinates": [
          8.09071122212519,
          48.17030646963099
        ]
      },
      "properties": {
        "name": "Nachtschloss",
        "type": "Forts and Castles",
        "inkscape_coordinates": [
          890.78595,
          596.37085
        ]
      }
    },
    {
      "type": "Feature",
      "geometry": {
        "type": "Point",
        "coordinates": [
          8.828145835097253,
          48.4204904416038
        ]
      },
      "properties": {
        "name": "Gallerschloss",
        "type": "Forts and Castles",
        "inkscape_coordinates": [
          932.92084,
          582.08331
        ]
      }
    },
    {
      "type": "Feature",
      "geometry": {
        "type": "Point",
        "coordinates": [
          8.547840941998196,
          48.91252404468032
        ]
      },
      "properties": {
        "name": "Burg Senkhof",
        "type": "Forts and Castles",
        "inkscape_coordinates": [
          916.91351,
          553.97137
        ]
      }
    },
    {
      "type": "Feature",
      "geometry": {
        "type": "Point",
        "coordinates": [
          7.802254996844394,
          48.84874783873359
        ]
      },
      "properties": {
        "name": "Schloss Drakenhof",
        "type": "Forts and Castles",
        "inkscape_coordinates": [
          874.31561,
          557.60938
        ]
      }
    },
    {
      "type": "Feature",
      "geometry": {
        "type": "Point",
        "coordinates": [
          7.687602517544131,
          48.979566060541025
        ]
      },
      "properties": {
        "name": "Haus Rattenburg",
        "type": "Forts and Castles",
        "inkscape_coordinates": [
          867.76715,
          550.13489
        ]
      }
    },
    {
      "type": "Feature",
      "geometry": {
        "type": "Point",
        "coordinates": [
          8.193445886912855,
          49.38139241863459
        ]
      },
      "properties": {
        "name": "Burg Wartenhof",
        "type": "Forts and Castles",
        "inkscape_coordinates": [
          896.67291,
          527.18231
        ]
      }
    },
    {
      "type": "Feature",
      "geometry": {
        "type": "Point",
        "coordinates": [
          8.82780642620364,
          49.76239541342302
        ]
      },
      "properties": {
        "name": "Zherdenschloss",
        "type": "Forts and Castles",
        "inkscape_coordinates": [
          932.92084,
          505.42032
        ]
      }
    },
    {
      "type": "Feature",
      "geometry": {
        "type": "Point",
        "coordinates": [
          8.158579993584393,
          49.90703566750732
        ]
      },
      "properties": {
        "name": "Burg Regak",
        "type": "Forts and Castles",
        "inkscape_coordinates": [
          894.68854,
          497.15207
        ]
      }
    },
    {
      "type": "Feature",
      "geometry": {
        "type": "Point",
        "coordinates": [
          7.468527888148333,
          49.99609783546828
        ]
      },
      "properties": {
        "name": "Turm Crannach",
        "type": "Forts and Castles",
        "inkscape_coordinates": [
          855.26562,
          492.05884
        ]
      }
    },
    {
      "type": "Feature",
      "geometry": {
        "type": "Point",
        "coordinates": [
          7.060756130087722,
          50.936189383441686
        ]
      },
      "properties": {
        "name": "Melkiorsturm",
        "type": "Forts and Castles",
        "inkscape_coordinates": [
          831.9823,
          438.34842
        ]
      }
    },
    {
      "type": "Feature",
      "geometry": {
        "type": "Point",
        "coordinates": [
          6.531149121834022,
          48.36345970872514
        ]
      },
      "properties": {
        "name": "Burg Bylorhof",
        "type": "Forts and Castles",
        "inkscape_coordinates": [
          801.6875,
          585.32446
        ]
      }
    },
    {
      "type": "Feature",
      "geometry": {
        "type": "Point",
        "coordinates": [
          5.792420026745748,
          48.65281692218128
        ]
      },
      "properties": {
        "name": "Burg Szlechin",
        "type": "Forts and Castles",
        "inkscape_coordinates": [
          759.48645,
          568.78802
        ]
      }
    },
    {
      "type": "Feature",
      "geometry": {
        "type": "Point",
        "coordinates": [
          4.673954573017746,
          48.89928591386688
        ]
      },
      "properties": {
        "name": "Merwillsturm",
        "type": "Forts and Castles",
        "inkscape_coordinates": [
          695.5896,
          554.69897
        ]
      }
    },
    {
      "type": "Feature",
      "geometry": {
        "type": "Point",
        "coordinates": [
          3.3431217157181647,
          46.52443846776172
        ]
      },
      "properties": {
        "name": "Burg Kleindorf",
        "type": "Forts and Castles",
        "inkscape_coordinates": [
          619.52185,
          690.36407
        ]
      }
    },
    {
      "type": "Feature",
      "geometry": {
        "type": "Point",
        "coordinates": [
          4.156484842266297,
          44.11281946425398
        ]
      },
      "properties": {
        "name": "Schloss von Diehl",
        "type": "Forts and Castles",
        "inkscape_coordinates": [
          665.95624,
          828.14581
        ]
      }
    },
    {
      "type": "Feature",
      "geometry": {
        "type": "Point",
        "coordinates": [
          4.094868509854442,
          52.996097285531135
        ]
      },
      "properties": {
        "name": "Festung Heldenhame",
        "type": "Forts and Castles",
        "inkscape_coordinates": [
          662.56433,
          320.64398
        ]
      }
    },
    {
      "type": "Feature",
      "geometry": {
        "type": "Point",
        "coordinates": [
          3.657471229298282,
          53.26021138947895
        ]
      },
      "properties": {
        "name": "Schloss Obelstein",
        "type": "Forts and Castles",
        "inkscape_coordinates": [
          637.57867,
          305.55191
        ]
      }
    },
    {
      "type": "Feature",
      "geometry": {
        "type": "Point",
        "coordinates": [
          2.3558507322184488,
          53.80312555860551
        ]
      },
      "properties": {
        "name": "Fort Denkh",
        "type": "Forts and Castles",
        "inkscape_coordinates": [
          563.22205,
          274.5256
        ]
      }
    },
    {
      "type": "Feature",
      "geometry": {
        "type": "Point",
        "coordinates": [
          1.3498694543884406,
          54.00596934037461
        ]
      },
      "properties": {
        "name": "Schloss Middenstag",
        "type": "Forts and Castles",
        "inkscape_coordinates": [
          505.75104,
          262.92969
        ]
      }
    },
    {
      "type": "Feature",
      "geometry": {
        "type": "Point",
        "coordinates": [
          1.0644349191527605,
          55.888117193816335
        ]
      },
      "properties": {
        "name": "Schloss Midfast",
        "type": "Forts and Castles",
        "inkscape_coordinates": [
          489.47073,
          155.40053
        ]
      }
    },
    {
      "type": "Feature",
      "geometry": {
        "type": "Point",
        "coordinates": [
          0.5814535677069381,
          55.192336692518985
        ]
      },
      "properties": {
        "name": "Jägerfestung",
        "type": "Forts and Castles",
        "inkscape_coordinates": [
          461.86688,
          195.14687
        ]
      }
    },
    {
      "type": "Feature",
      "geometry": {
        "type": "Point",
        "coordinates": [
          1.7744159136712012,
          55.6383942941783
        ]
      },
      "properties": {
        "name": "Brass Keep",
        "type": "Forts and Castles",
        "inkscape_coordinates": [
          530.02991,
          169.67245
        ]
      }
    },
    {
      "type": "Feature",
      "geometry": {
        "type": "Point",
        "coordinates": [
          1.6637517111514564,
          57.50416444758728
        ]
      },
      "properties": {
        "name": "Nordenwacht",
        "type": "Forts and Castles",
        "inkscape_coordinates": [
          523.73438,
          63.080242
        ]
      }
    },
    {
      "type": "Feature",
      "geometry": {
        "type": "Point",
        "coordinates": [
          1.1938378989310143,
          57.74831799668286
        ]
      },
      "properties": {
        "name": "Jutongard",
        "type": "Forts and Castles",
        "inkscape_coordinates": [
          496.89069,
          49.128277
        ]
      }
    },
    {
      "type": "Feature",
      "geometry": {
        "type": "Point",
        "coordinates": [
          3.562317835316983,
          56.473556208161035
        ]
      },
      "properties": {
        "name": "Schloss Geschler",
        "type": "Forts and Castles",
        "inkscape_coordinates": [
          632.18878,
          121.97292
        ]
      }
    },
    {
      "type": "Feature",
      "geometry": {
        "type": "Point",
        "coordinates": [
          5.740985007155442,
          44.859639185522525
        ]
      },
      "properties": {
        "name": "Fort Blackfire",
        "type": "Forts and Castles",
        "inkscape_coordinates": [
          756.49304,
          785.49176
        ]
      }
    },
    {
      "type": "Feature",
      "geometry": {
        "type": "Point",
        "coordinates": [
          6.389048104090352,
          47.1604731589026
        ]
      },
      "properties": {
        "name": "Altturm",
        "type": "Forts and Castles",
        "inkscape_coordinates": [
          793.55157,
          654.04999
        ]
      }
    },
    {
      "type": "Feature",
      "geometry": {
        "type": "Point",
        "coordinates": [
          6.470572177977615,
          49.838505554695345
        ]
      },
      "properties": {
        "name": "Sternschloss",
        "type": "Forts and Castles",
        "inkscape_coordinates": [
          798.24792,
          501.05469
        ]
      }
    },
    {
      "type": "Feature",
      "geometry": {
        "type": "Point",
        "coordinates": [
          3.4411719789299715,
          57.10339092042694
        ]
      },
      "properties": {
        "name": "Sigmarstein",
        "type": "Forts and Castles",
        "inkscape_coordinates": [
          625.27655,
          85.989586
        ]
      }
    },
    {
      "type": "Feature",
      "geometry": {
        "type": "Point",
        "coordinates": [
          1.5025998950698858,
          55.180409903953795
        ]
      },
      "properties": {
        "name": "Festung Immelsheid",
        "type": "Forts and Castles",
        "inkscape_coordinates": [
          514.49384,
          195.83507
        ]
      }
    },
    {
      "type": "Feature",
      "geometry": {
        "type": "Point",
        "coordinates": [
          -1.3671205027351778,
          52.85938152251054
        ]
      },
      "properties": {
        "name": "Turm Lasterhaft",
        "type": "Forts and Castles",
        "inkscape_coordinates": [
          350.50681,
          328.41409
        ]
      }
    },
    {
      "type": "Feature",
      "geometry": {
        "type": "Point",
        "coordinates": [
          -1.4501059521108575,
          49.919186526797816
        ]
      },
      "properties": {
        "name": "Schloss Merwinwald",
        "type": "Forts and Castles",
        "inkscape_coordinates": [
          345.72318,
          496.38672
        ]
      }
    },
    {
      "type": "Feature",
      "geometry": {
        "type": "Point",
        "coordinates": [
          -1.165205488989817,
          49.89875592295593
        ]
      },
      "properties": {
        "name": "Burg Totenkopf",
        "type": "Forts and Castles",
        "inkscape_coordinates": [
          361.99988,
          497.55603
        ]
      }
    },
    {
      "type": "Feature",
      "geometry": {
        "type": "Point",
        "coordinates": [
          -0.6317807318898838,
          51.26277509613572
        ]
      },
      "properties": {
        "name": "Holzkrugburg",
        "type": "Forts and Castles",
        "inkscape_coordinates": [
          392.49533,
          419.63361
        ]
      }
    },
    {
      "type": "Feature",
      "geometry": {
        "type": "Point",
        "coordinates": [
          -0.4804365189715094,
          51.69179216134372
        ]
      },
      "properties": {
        "name": "Thurgenburg",
        "type": "Forts and Castles",
        "inkscape_coordinates": [
          401.14816,
          395.125
        ]
      }
    },
    {
      "type": "Feature",
      "geometry": {
        "type": "Point",
        "coordinates": [
          -0.5484100993008498,
          51.79084606879667
        ]
      },
      "properties": {
        "name": "Schloss Linter",
        "type": "Forts and Castles",
        "inkscape_coordinates": [
          397.26611,
          389.46555
        ]
      }
    },
    {
      "type": "Feature",
      "geometry": {
        "type": "Point",
        "coordinates": [
          -0.5484388824963427,
          51.90464483442514
        ]
      },
      "properties": {
        "name": "Schloss Bildhofen",
        "type": "Forts and Castles",
        "inkscape_coordinates": [
          397.26611,
          382.96423
        ]
      }
    },
    {
      "type": "Feature",
      "geometry": {
        "type": "Point",
        "coordinates": [
          -0.3532236912524134,
          51.57754375526626
        ]
      },
      "properties": {
        "name": "Rottefachturm",
        "type": "Forts and Castles",
        "inkscape_coordinates": [
          408.41446,
          401.65295
        ]
      }
    },
    {
      "type": "Feature",
      "geometry": {
        "type": "Point",
        "coordinates": [
          -2.600414666709189,
          53.15144426424675
        ]
      },
      "properties": {
        "name": "Rijker's Isle",
        "type": "Forts and Castles",
        "inkscape_coordinates": [
          280.0502,
          311.71942
        ]
      }
    },
    {
      "type": "Feature",
      "geometry": {
        "type": "Point",
        "coordinates": [
          3.6032764243525888,
          57.04204782084904
        ]
      },
      "properties": {
        "name": "Bokenhof",
        "type": "Forts and Castles",
        "inkscape_coordinates": [
          634.53705,
          89.495316
        ]
      }
    },
    {
      "type": "Feature",
      "geometry": {
        "type": "Point",
        "coordinates": [
          -2.6134245196786594,
          53.13426490275664
        ]
      },
      "properties": {
        "name": "Tempelwijk",
        "type": "City Districts",
        "inkscape_coordinates": [
          279.30667,
          312.70078
        ]
      }
    },
    {
      "type": "Feature",
      "geometry": {
        "type": "Point",
        "coordinates": [
          -2.5831370835124208,
          53.14614053246651
        ]
      },
      "properties": {
        "name": "Elfsgemeente",
        "type": "City Districts",
        "inkscape_coordinates": [
          281.03723,
          312.02255
        ]
      }
    },
    {
      "type": "Feature",
      "geometry": {
        "type": "Point",
        "coordinates": [
          -2.6083029702797997,
          53.11727763484319
        ]
      },
      "properties": {
        "name": "Suiddock",
        "type": "City Districts",
        "inkscape_coordinates": [
          279.59903,
          313.6713
        ]
      }
    },
    {
      "type": "Feature",
      "geometry": {
        "type": "Point",
        "coordinates": [
          -2.597862703356447,
          53.105817753159215
        ]
      },
      "properties": {
        "name": "Doodkanaal",
        "type": "City Districts",
        "inkscape_coordinates": [
          280.19534,
          314.32608
        ]
      }
    },
    {
      "type": "Feature",
      "geometry": {
        "type": "Point",
        "coordinates": [
          -2.559182126872239,
          53.111553910944615
        ]
      },
      "properties": {
        "name": "Ostmuur",
        "type": "City Districts",
        "inkscape_coordinates": [
          282.40533,
          313.99866
        ]
      }
    },
    {
      "type": "Feature",
      "geometry": {
        "type": "Point",
        "coordinates": [
          -2.5665455604993763,
          53.095588480184155
        ]
      },
      "properties": {
        "name": "Rijkspoort",
        "type": "City Districts",
        "inkscape_coordinates": [
          281.98441,
          314.91071
        ]
      }
    },
    {
      "type": "Feature",
      "geometry": {
        "type": "Point",
        "coordinates": [
          -2.578210577561477,
          53.089242136597825
        ]
      },
      "properties": {
        "name": "Kruiersmuur",
        "type": "City Districts",
        "inkscape_coordinates": [
          281.31787,
          315.27319
        ]
      }
    },
    {
      "type": "Feature",
      "geometry": {
        "type": "Point",
        "coordinates": [
          -2.5751485422217133,
          53.1223988626042
        ]
      },
      "properties": {
        "name": "Paleisbuurt",
        "type": "City Districts",
        "inkscape_coordinates": [
          281.49329,
          313.37897
        ]
      }
    },
    {
      "type": "Feature",
      "geometry": {
        "type": "Point",
        "coordinates": [
          -2.5683972125491303,
          53.13427144080537
        ]
      },
      "properties": {
        "name": "Noordmuur",
        "type": "City Districts",
        "inkscape_coordinates": [
          281.87918,
          312.70074
        ]
      }
    },
    {
      "type": "Feature",
      "geometry": {
        "type": "Point",
        "coordinates": [
          -0.007800594756678159,
          51.45177033458075
        ]
      },
      "properties": {
        "name": "South Bank",
        "type": "City Districts",
        "inkscape_coordinates": [
          428.14743,
          408.84094
        ]
      }
    },
    {
      "type": "Feature",
      "geometry": {
        "type": "Point",
        "coordinates": [
          0.020646331817724572,
          51.45689147712215
        ]
      },
      "properties": {
        "name": "East End",
        "type": "City Districts",
        "inkscape_coordinates": [
          429.77274,
          408.54858
        ]
      }
    },
    {
      "type": "Feature",
      "geometry": {
        "type": "Point",
        "coordinates": [
          0.005497353146087569,
          51.47244422166772
        ]
      },
      "properties": {
        "name": "City North",
        "type": "City Districts",
        "inkscape_coordinates": [
          428.90747,
          407.65994
        ]
      }
    },
    {
      "type": "Feature",
      "geometry": {
        "type": "Point",
        "coordinates": [
          1.2574629059090396,
          48.00209135464053
        ]
      },
      "properties": {
        "name": "Neuestadt",
        "type": "City Districts",
        "inkscape_coordinates": [
          500.38489,
          605.93036
        ]
      }
    },
    {
      "type": "Feature",
      "geometry": {
        "type": "Point",
        "coordinates": [
          1.274925555637954,
          47.99171780326012
        ]
      },
      "properties": {
        "name": "Der Halbinsel",
        "type": "City Districts",
        "inkscape_coordinates": [
          501.38242,
          606.52313
        ]
      }
    },
    {
      "type": "Feature",
      "geometry": {
        "type": "Point",
        "coordinates": [
          1.2478631488014296,
          47.99070151610831
        ]
      },
      "properties": {
        "name": "Faulestadt",
        "type": "City Districts",
        "inkscape_coordinates": [
          499.83627,
          606.58099
        ]
      }
    },
    {
      "type": "Feature",
      "geometry": {
        "type": "Point",
        "coordinates": [
          1.267829030425152,
          48.011109682574684
        ]
      },
      "properties": {
        "name": "Altestadt",
        "type": "City Districts",
        "inkscape_coordinates": [
          500.97726,
          605.41522
        ]
      }
    },
    {
      "type": "Feature",
      "geometry": {
        "type": "Point",
        "coordinates": [
          -0.27764083915559024,
          52.778475644339906
        ]
      },
      "properties": {
        "name": "Tomb of the Lost Ones",
        "type": "Other",
        "inkscape_coordinates": [
          412.75003,
          333.04431
        ]
      }
    },
    {
      "type": "Feature",
      "geometry": {
        "type": "Point",
        "coordinates": [
          1.2992436596597594,
          52.757839715010476
        ]
      },
      "properties": {
        "name": "The Kromlech",
        "type": "Other",
        "inkscape_coordinates": [
          502.84064,
          334.23492
        ]
      }
    },
    {
      "type": "Feature",
      "geometry": {
        "type": "Point",
        "coordinates": [
          -0.6036559863133855,
          50.898145067884684
        ]
      },
      "properties": {
        "name": "Darkstone Ring",
        "type": "Other",
        "inkscape_coordinates": [
          394.09689,
          440.46512
        ]
      }
    },
    {
      "type": "Feature",
      "geometry": {
        "type": "Point",
        "coordinates": [
          -0.3860021768759836,
          50.92480256890023
        ]
      },
      "properties": {
        "name": "Farbrandt's Tomb",
        "type": "Other",
        "inkscape_coordinates": [
          406.53232,
          438.94379
        ]
      }
    },
    {
      "type": "Feature",
      "geometry": {
        "type": "Point",
        "coordinates": [
          0.27647803063241927,
          54.563895954562064
        ]
      },
      "properties": {
        "name": "Asyrine Tower",
        "type": "Other",
        "inkscape_coordinates": [
          444.43387,
          231.04741
        ]
      }
    },
    {
      "type": "Feature",
      "geometry": {
        "type": "Point",
        "coordinates": [
          1.75244929538957,
          50.7085689359763
        ]
      },
      "properties": {
        "name": "Daemon's Bowl",
        "type": "Other",
        "inkscape_coordinates": [
          528.70367,
          451.31305
        ]
      }
    }
  ]
}